{
    "65e709430d00d": {
        "id": "65e709430d00d",
        "name": "147 Elder Street Inc.",
        "streetaddress": "147 Elder Street",
        "latlng": "43.7628908,-79.454113",
        "postal": "M3H 5G9",
        "lic_status": "Issued",
        "citytown": "Toronto",
        "lic_number": "T0179",
        "documents": [],
        "previously_known_as": []
    },
    "66435243f01ed": {
        "id": "66435243f01ed",
        "name": "A Better Way Retirement Home Corp.",
        "streetaddress": "34 Middleport Crescent",
        "latlng": "43.8154739,-79.2170303",
        "postal": "M1B 4L1",
        "lic_status": "Issued",
        "citytown": "Scarborough",
        "lic_number": "T0474",
        "documents": [],
        "previously_known_as": []
    },
    "672cabc41a1ba": {
        "id": "672cabc41a1ba",
        "name": "A Better Way Retirement Home Corporation",
        "streetaddress": "22 Purpledusk Trail",
        "latlng": "43.7836528,-79.2075972",
        "postal": "M1E 4C7",
        "lic_status": "Issued",
        "citytown": "Scarborough",
        "lic_number": "T0502",
        "documents": [],
        "previously_known_as": []
    },
    "67c1a54504497": {
        "id": "67c1a54504497",
        "name": "Abbeylawn Manor Retirement Home",
        "streetaddress": "534 Rodd Avenue",
        "latlng": "43.7977351,-79.1142449",
        "postal": "L1W 2B2",
        "lic_status": "Issued",
        "citytown": "Pickering",
        "lic_number": "T0449",
        "documents": [],
        "previously_known_as": []
    },
    "679b69c6e7efb": {
        "id": "679b69c6e7efb",
        "name": "Aberdeen Gardens Retirement Residence",
        "streetaddress": "330 Dundurn Street  S.",
        "latlng": "43.2516426,-79.8929411",
        "postal": "L8P 4L6",
        "lic_status": "Issued",
        "citytown": "Hamilton",
        "lic_number": "S0079",
        "documents": [],
        "previously_known_as": []
    },
    "679380c5e6272": {
        "id": "679380c5e6272",
        "name": "Abington Court",
        "streetaddress": "1500 Main Street  E.",
        "latlng": "43.238948,-79.8057877",
        "postal": "L8K 1E1",
        "lic_status": "Issued",
        "citytown": "Hamilton",
        "lic_number": "S0542",
        "documents": [],
        "previously_known_as": []
    },
    "679a184487109": {
        "id": "679a184487109",
        "name": "Adelaide Place Retirement Community",
        "streetaddress": "84 Adelaide Street  S.",
        "latlng": "44.3463513,-78.7443883",
        "postal": "K9V 0G6",
        "lic_status": "Issued",
        "citytown": "Lindsay",
        "lic_number": "T0043",
        "documents": [],
        "previously_known_as": []
    },
    "67dab1c4eaa95": {
        "id": "67dab1c4eaa95",
        "name": "Adeline's Lodge",
        "streetaddress": "379 Lake Promenade",
        "latlng": "43.58756,-79.53865",
        "postal": "M8W 1C1",
        "lic_status": "Issued",
        "citytown": "Etobicoke",
        "lic_number": "T0191",
        "documents": [],
        "previously_known_as": []
    },
    "673dcf4473e6f": {
        "id": "673dcf4473e6f",
        "name": "Advent Forestview Retirement Residence",
        "streetaddress": "537 Finch Avenue  W.",
        "latlng": "43.7702509,-79.4447306",
        "postal": "M2R 0A8",
        "lic_status": "Issued",
        "citytown": "Toronto",
        "lic_number": "T0522",
        "documents": [],
        "previously_known_as": []
    },
    "6766adc5a03b2": {
        "id": "6766adc5a03b2",
        "name": "AgeCare Elmira Estate",
        "streetaddress": "8 Snyder Avenue N.",
        "latlng": "43.6006813,-80.5632016",
        "postal": "N3B 2B1",
        "lic_status": "Issued",
        "citytown": "Elmira",
        "lic_number": "T0637",
        "documents": [],
        "previously_known_as": []
    },
    "67ac8d444e6f3": {
        "id": "67ac8d444e6f3",
        "name": "AgeCare Pine Grove",
        "streetaddress": "8403 Islington Avenue N.",
        "latlng": "43.7985918,-79.5841357",
        "postal": "L4L 1X3",
        "lic_status": "Issued",
        "citytown": "Woodbridge",
        "lic_number": "T0638",
        "documents": [],
        "previously_known_as": []
    },
    "67dab1c4de1e4": {
        "id": "67dab1c4de1e4",
        "name": "Albany Retirement Village",
        "streetaddress": "423 Albany Street    PO BOX 820",
        "latlng": "42.8801612,-82.1487974",
        "postal": "N0N 1R0",
        "lic_status": "Issued",
        "citytown": "Petrolia",
        "lic_number": "S0351",
        "documents": [],
        "previously_known_as": []
    },
    "67a5f5c52d8cc": {
        "id": "67a5f5c52d8cc",
        "name": "Alexis Lodge Retirement Residence",
        "streetaddress": "705 - 707 Ellesmere Road",
        "latlng": "43.7637104,-79.2886373",
        "postal": "M1P 2W1",
        "lic_status": "Issued",
        "citytown": "Scarborough",
        "lic_number": "T0193",
        "documents": [],
        "previously_known_as": []
    },
    "67ac8d44e0b75": {
        "id": "67ac8d44e0b75",
        "name": "Alta Vista Manor",
        "streetaddress": "751 Peter Morand Crescent",
        "latlng": "45.4034849,-75.6393953",
        "postal": "K1G 6S9",
        "lic_status": "Issued",
        "citytown": "Ottawa",
        "lic_number": "N0393",
        "documents": [],
        "previously_known_as": []
    },
    "67a4a445c502c": {
        "id": "67a4a445c502c",
        "name": "Amber Lea Place Retirement Residence",
        "streetaddress": "384 St. Paul Avenue",
        "latlng": "43.1570703,-80.2745",
        "postal": "N3R 4N4",
        "lic_status": "Issued",
        "citytown": "Brantford",
        "lic_number": "S0083",
        "documents": [],
        "previously_known_as": []
    },
    "67d2c8c480915": {
        "id": "67d2c8c480915",
        "name": "Amenida Seniors Community Pickering",
        "streetaddress": "1645 Pickering Parkway",
        "latlng": "43.8408186,-79.0723047",
        "postal": "L1V 7E9",
        "lic_status": "Issued",
        "citytown": "Pickering",
        "lic_number": "T01959",
        "documents": [],
        "previously_known_as": [
            {
                "name": "Amenida Seniors Community Pickering",
                "until": "March 12, 2025"
            }
        ]
    },
    "67d96045aa490": {
        "id": "67d96045aa490",
        "name": "Amica Bayview Gardens",
        "streetaddress": "19 Rean Drive",
        "latlng": "43.7672123,-79.3824384",
        "postal": "M2K 0A4",
        "lic_status": "Issued",
        "citytown": "North York",
        "lic_number": "T0143",
        "documents": [],
        "previously_known_as": [
            {
                "name": "Amica at Bayview Gardens",
                "until": "January 18, 2019"
            }
        ]
    },
    "67ebd545dd9bd": {
        "id": "67ebd545dd9bd",
        "name": "Amica Bayview Village",
        "streetaddress": "15 Barberry Place",
        "latlng": "43.7663864,-79.3839957",
        "postal": "M2K 1G4",
        "lic_status": "Issued",
        "citytown": "North York",
        "lic_number": "T0141",
        "documents": [],
        "previously_known_as": [
            {
                "name": "Amica at Bayview",
                "until": "January 18, 2019"
            }
        ]
    },
    "663623439dc5d": {
        "id": "663623439dc5d",
        "name": "Amica Bronte Harbour",
        "streetaddress": "160 Bronte Road",
        "latlng": "43.3947243,-79.7146945",
        "postal": "L6L 3C1",
        "lic_status": "Issued",
        "citytown": "Oakville",
        "lic_number": "T0434",
        "documents": [],
        "previously_known_as": [
            {
                "name": "Amica at Oakville",
                "until": "January 18, 2019"
            }
        ]
    },
    "668d26454d0a1": {
        "id": "668d26454d0a1",
        "name": "Amica City Centre",
        "streetaddress": "380 Princess Royal Drive",
        "latlng": "43.587189,-79.6471404",
        "postal": "L5B 4M9",
        "lic_status": "Issued",
        "citytown": "Mississauga",
        "lic_number": "T0142",
        "documents": [],
        "previously_known_as": [
            {
                "name": "Amica at City Centre",
                "until": "January 18, 2019"
            }
        ]
    },
    "67ebd5465646c": {
        "id": "67ebd5465646c",
        "name": "Amica Dundas",
        "streetaddress": "50 Hatt Street",
        "latlng": "43.2644808,-79.9550336",
        "postal": "L9H 0A1",
        "lic_status": "Issued",
        "citytown": "Dundas",
        "lic_number": "S0103",
        "documents": [],
        "previously_known_as": [
            {
                "name": "Amica at Dundas",
                "until": "January 18, 2019"
            }
        ]
    },
    "67655c46b887c": {
        "id": "67655c46b887c",
        "name": "Amica Erin Mills",
        "streetaddress": "4620 Kimbermount Avenue",
        "latlng": "43.5495796,-79.7161426",
        "postal": "L5M 5W5",
        "lic_status": "Issued",
        "citytown": "Mississauga",
        "lic_number": "T0147",
        "documents": [],
        "previously_known_as": [
            {
                "name": "Amica at Erin Mills",
                "until": "January 18, 2019"
            }
        ]
    },
    "67ee78447cc5f": {
        "id": "67ee78447cc5f",
        "name": "Amica Georgetown",
        "streetaddress": "224 Maple Ave",
        "latlng": "43.6477197,-79.9199261",
        "postal": "L7G 1X2",
        "lic_status": "Issued",
        "citytown": "Georgetown",
        "lic_number": "T0542",
        "documents": [],
        "previously_known_as": []
    },
    "673c7dc69f87e": {
        "id": "673c7dc69f87e",
        "name": "Amica Little Lake",
        "streetaddress": "70 Lakeside Terrace",
        "latlng": "44.4162587,-79.6678837",
        "postal": "L4M 0J2",
        "lic_status": "Issued",
        "citytown": "Barrie",
        "lic_number": "N0414",
        "documents": [],
        "previously_known_as": [
            {
                "name": "Amica at Barrie",
                "until": "January 18, 2019"
            },
            {
                "name": "Heatherdale Senior Living Little Lake",
                "until": "September 20, 2016"
            }
        ]
    },
    "66362343cd6c6": {
        "id": "66362343cd6c6",
        "name": "Amica London",
        "streetaddress": "517 Fanshawe Park Road  W.",
        "latlng": "43.0202378,-81.3063698",
        "postal": "N6G 0C1",
        "lic_status": "Issued",
        "citytown": "London",
        "lic_number": "S0101",
        "documents": [],
        "previously_known_as": [
            {
                "name": "Amica at London",
                "until": "January 18, 2019"
            }
        ]
    },
    "6766adc623e25": {
        "id": "6766adc623e25",
        "name": "Amica Newmarket",
        "streetaddress": "275 Doak Lane",
        "latlng": "44.0550146,-79.4349807",
        "postal": "L3Y 0A2",
        "lic_status": "Issued",
        "citytown": "Newmarket",
        "lic_number": "T0145",
        "documents": [],
        "previously_known_as": [
            {
                "name": "Amica at Newmarket",
                "until": "January 18, 2019"
            },
            {
                "name": "Amica Newmarket LP",
                "until": "January 18, 2019"
            }
        ]
    },
    "6773dcc531ade": {
        "id": "6773dcc531ade",
        "name": "Amica On the Avenue",
        "streetaddress": "1066 Avenue Road",
        "latlng": "43.7058066,-79.4102162",
        "postal": "M5N 0A3",
        "lic_status": "Issued",
        "citytown": "Toronto",
        "lic_number": "T0255",
        "documents": [],
        "previously_known_as": [
            {
                "name": "Living Life on The Avenue Retirement Residence",
                "until": "January 18, 2019"
            }
        ]
    },
    "6762b946d11e3": {
        "id": "6762b946d11e3",
        "name": "Amica Peel Village",
        "streetaddress": "223 Main Street  S.",
        "latlng": "43.670056,-79.7398122",
        "postal": "L6Y 6H1",
        "lic_status": "Issued",
        "citytown": "Brampton",
        "lic_number": "T0528",
        "documents": [],
        "previously_known_as": [
            {
                "name": "Amica at Brampton",
                "until": "July 7, 2022"
            }
        ]
    },
    "67c2f6c5ba5ab": {
        "id": "67c2f6c5ba5ab",
        "name": "Amica Pickering",
        "streetaddress": "1450 Pickering Parkway",
        "latlng": "43.8349988,-79.0817612",
        "postal": "L1V 0G2",
        "lic_status": "Issued",
        "citytown": "Pickering",
        "lic_number": "T0614",
        "documents": [],
        "previously_known_as": []
    },
    "67b86ac77809d": {
        "id": "67b86ac77809d",
        "name": "Amica Riverside",
        "streetaddress": "4909 Riverside Drive",
        "latlng": "42.3279841,-82.9791885",
        "postal": "N8Y 0A4",
        "lic_status": "Issued",
        "citytown": "Windsor",
        "lic_number": "S0102",
        "documents": [],
        "previously_known_as": [
            {
                "name": "Amica at Windsor",
                "until": "January 18, 2019"
            }
        ]
    },
    "679b69c67dd9e": {
        "id": "679b69c67dd9e",
        "name": "Amica Stoney Creek",
        "streetaddress": "135 King Street E",
        "latlng": "43.2176378,-79.7483212",
        "postal": "L8G 0B2",
        "lic_status": "Issued",
        "citytown": "Stoney Creek",
        "lic_number": "S0403",
        "documents": [],
        "previously_known_as": [
            {
                "name": "Amica at Stoney Creek",
                "until": "January 18, 2019"
            }
        ]
    },
    "67e7e0c599bbc": {
        "id": "67e7e0c599bbc",
        "name": "Amica Swan Lake",
        "streetaddress": "6360 16th Avenue",
        "latlng": "43.8952447,-79.2524609",
        "postal": "L3P 7Y6",
        "lic_status": "Issued",
        "citytown": "Markham",
        "lic_number": "T0148",
        "documents": [],
        "previously_known_as": [
            {
                "name": "Amica at Swan Lake",
                "until": "January 18, 2019"
            }
        ]
    },
    "678651c5cebfe": {
        "id": "678651c5cebfe",
        "name": "Amica Taunton",
        "streetaddress": "85 Taunton Rd East",
        "latlng": "43.9154091,-78.9545441",
        "postal": "L1R 3L3",
        "lic_status": "Issued",
        "citytown": "Whitby",
        "lic_number": "T0633",
        "documents": [],
        "previously_known_as": []
    },
    "67e7e0c56305e": {
        "id": "67e7e0c56305e",
        "name": "Amica the Glebe Inc.",
        "streetaddress": "33 Monk Street",
        "latlng": "45.4001103,-75.6874351",
        "postal": "K1S 5X6",
        "lic_status": "Issued",
        "citytown": "Ottawa",
        "lic_number": "N0568",
        "documents": [],
        "previously_known_as": []
    },
    "67922f456682e": {
        "id": "67922f456682e",
        "name": "Amica Thornhill",
        "streetaddress": "546 Steeles Avenue  W.",
        "latlng": "43.7943884,-79.4390572",
        "postal": "L4J 1A2",
        "lic_status": "Issued",
        "citytown": "Vaughan",
        "lic_number": "T0149",
        "documents": [],
        "previously_known_as": [
            {
                "name": "Amica at Thornhill",
                "until": "January 18, 2019"
            }
        ]
    },
    "67d17744cffc5": {
        "id": "67d17744cffc5",
        "name": "Amica Unionville",
        "streetaddress": "34 Main Street",
        "latlng": "43.8563729,-79.3100057",
        "postal": "L3R 4Z8",
        "lic_status": "Issued",
        "citytown": "Unionville",
        "lic_number": "T0280",
        "documents": [],
        "previously_known_as": [
            {
                "name": "Amica at Unionville",
                "until": "January 18, 2019"
            },
            {
                "name": "The Marleigh Retirement Residence",
                "until": "September 19, 2016"
            }
        ]
    },
    "67dc034547c41": {
        "id": "67dc034547c41",
        "name": "Amica Westboro Park",
        "streetaddress": "491 Richmond Road",
        "latlng": "45.3888587,-75.7608126",
        "postal": "K2A 1G4",
        "lic_status": "Issued",
        "citytown": "Ottawa",
        "lic_number": "N0134",
        "documents": [],
        "previously_known_as": [
            {
                "name": "Amica at Westboro Park",
                "until": "January 18, 2019"
            }
        ]
    },
    "6777d146d0452": {
        "id": "6777d146d0452",
        "name": "Amica Whitby",
        "streetaddress": "200 Kenneth Hobbs Avenue",
        "latlng": "43.902903,-78.9422194",
        "postal": "L1R 0G6",
        "lic_status": "Issued",
        "citytown": "Whitby",
        "lic_number": "T0146",
        "documents": [],
        "previously_known_as": [
            {
                "name": "Amica at Whitby",
                "until": "January 18, 2019"
            }
        ]
    },
    "673dcf4528120": {
        "id": "673dcf4528120",
        "name": "Anfield Manor",
        "streetaddress": "26 Joseph Street  PO Box 777",
        "latlng": "43.6172804,-81.5393953",
        "postal": "N0M 1L0",
        "lic_status": "Issued",
        "citytown": "Clinton",
        "lic_number": "S0131",
        "documents": [],
        "previously_known_as": []
    },
    "676167c691d11": {
        "id": "676167c691d11",
        "name": "Angel's Retirement Home",
        "streetaddress": "417 Queeston Street",
        "latlng": "43.1594643,-79.208129",
        "postal": "L2P 2Y3",
        "lic_status": "Issued",
        "citytown": "St. Catharines",
        "lic_number": "S0378",
        "documents": [],
        "previously_known_as": []
    },
    "67ed26c49cf14": {
        "id": "67ed26c49cf14",
        "name": "Appleby Place",
        "streetaddress": "500 Appleby Line",
        "latlng": "43.3682496,-79.75558",
        "postal": "L7L 5Z6",
        "lic_status": "Issued",
        "citytown": "Burlington",
        "lic_number": "S01417",
        "documents": [],
        "previously_known_as": []
    },
    "67a352c5d073b": {
        "id": "67a352c5d073b",
        "name": "Applefest Retirement Residence",
        "streetaddress": "120 Elizabeth Street",
        "latlng": "44.0452213,-77.7277714",
        "postal": "K0K 1H0",
        "lic_status": "Issued",
        "citytown": "Brighton",
        "lic_number": "N0575",
        "documents": [],
        "previously_known_as": [
            {
                "name": "Applefest Lodge",
                "until": "February 4, 2025"
            },
            {
                "name": "Applefest Lodge",
                "until": "February 4, 2025"
            }
        ]
    },
    "6773dcc56f614": {
        "id": "6773dcc56f614",
        "name": "Applewood Retirement Residence",
        "streetaddress": "1500 Lansdowne Street  W.",
        "latlng": "44.2783979,-78.3625337",
        "postal": "K9J 2A2",
        "lic_status": "Issued",
        "citytown": "Peterborough",
        "lic_number": "T0035",
        "documents": [],
        "previously_known_as": []
    },
    "672f4ec612797": {
        "id": "672f4ec612797",
        "name": "Aquatria",
        "streetaddress": "11 Aquatria",
        "latlng": "45.3144492,-75.0937689",
        "postal": "K0A 1M0",
        "lic_status": "Issued",
        "citytown": "Casselman",
        "lic_number": "N0490",
        "documents": [],
        "previously_known_as": []
    },
    "67c83cc512da2": {
        "id": "67c83cc512da2",
        "name": "Arabella Retirement Living",
        "streetaddress": "24 Dundas Street West",
        "latlng": "44.1603176,-77.3869983",
        "postal": "K8P 3M7",
        "lic_status": "Issued",
        "citytown": "Belleville",
        "lic_number": "N0538",
        "documents": [],
        "previously_known_as": []
    },
    "679e0cc5db117": {
        "id": "679e0cc5db117",
        "name": "Arbor Trace Alzheimer's Special Care Center",
        "streetaddress": "120 Chelton Road",
        "latlng": "42.9629736,-81.174836",
        "postal": "N6M 0C9",
        "lic_status": "Issued",
        "citytown": "London",
        "lic_number": "S0221",
        "documents": [],
        "previously_known_as": []
    },
    "677e68c5a07f6": {
        "id": "677e68c5a07f6",
        "name": "Arnprior Villa",
        "streetaddress": "15 Arthur Street",
        "latlng": "45.4243804,-76.3649337",
        "postal": "K7S 1A1",
        "lic_status": "Issued",
        "citytown": "Arnprior",
        "lic_number": "N0258",
        "documents": [],
        "previously_known_as": []
    },
    "672b5a46cf356": {
        "id": "672b5a46cf356",
        "name": "Arul Oli Senior Centre",
        "streetaddress": "8 Snowy Owl Way",
        "latlng": "43.8321253,-79.2344317",
        "postal": "M1X 0B4",
        "lic_status": "Issued",
        "citytown": "Scarborough",
        "lic_number": "T0293",
        "documents": [],
        "previously_known_as": []
    },
    "67e53dc66a50f": {
        "id": "67e53dc66a50f",
        "name": "Ashwood Manor",
        "streetaddress": "79 David Street",
        "latlng": "42.9097275,-81.2891368",
        "postal": "N6P 1B4",
        "lic_status": "Issued",
        "citytown": "London",
        "lic_number": "S0425",
        "documents": [],
        "previously_known_as": []
    },
    "6794d2452399e": {
        "id": "6794d2452399e",
        "name": "Aspira Bearbrook Retirement Living",
        "streetaddress": "2645 Innes Road",
        "latlng": "45.4325813,-75.5638416",
        "postal": "K1B 3J7",
        "lic_status": "Issued",
        "citytown": "Ottawa",
        "lic_number": "N0479",
        "documents": [],
        "previously_known_as": [
            {
                "name": "Bearbrook Retirement Residence",
                "until": "July 7, 2022"
            }
        ]
    },
    "6749acc46d76c": {
        "id": "6749acc46d76c",
        "name": "Aspira Bolton Mills Retirement Living",
        "streetaddress": "100 Morra Avenue",
        "latlng": "43.8553272,-79.700819",
        "postal": "L7E 4K5",
        "lic_status": "Issued",
        "citytown": "Bolton",
        "lic_number": "T0620",
        "documents": [],
        "previously_known_as": []
    },
    "672f4ec695a7a": {
        "id": "672f4ec695a7a",
        "name": "Aspira Carolina Retirement Living",
        "streetaddress": "12 Alma Street",
        "latlng": "44.8989707,-76.2580337",
        "postal": "K7H 2R7",
        "lic_status": "Issued",
        "citytown": "Perth",
        "lic_number": "N0478",
        "documents": [],
        "previously_known_as": [
            {
                "name": "Carolina Retirement Residence",
                "until": "July 7, 2022"
            }
        ]
    },
    "679b69c616f45": {
        "id": "679b69c616f45",
        "name": "Aspira Cedar Crossing Retirement Living",
        "streetaddress": "395 Cedar Street",
        "latlng": "42.8420833,-80.3201791",
        "postal": "N3Y 2J2",
        "lic_status": "Issued",
        "citytown": "Simcoe",
        "lic_number": "S0544",
        "documents": [],
        "previously_known_as": []
    },
    "67752e471bdcb": {
        "id": "67752e471bdcb",
        "name": "Aspira Cedarvale Lodge Retirement Living",
        "streetaddress": "121 Morton Avenue",
        "latlng": "44.2320315,-79.4565887",
        "postal": "L4P 3T5",
        "lic_status": "Issued",
        "citytown": "Keswick",
        "lic_number": "T0286",
        "documents": [],
        "previously_known_as": [
            {
                "name": "Cedarvale Lodge Care Community",
                "until": "April 14, 2015"
            },
            {
                "name": "Cedarvale Lodge Retirement and Care Community",
                "until": "May 1, 2015"
            }
        ]
    },
    "65bcd943aff45": {
        "id": "65bcd943aff45",
        "name": "Aspira Doon Village Retirement Living",
        "streetaddress": "868 Doon Village Road",
        "latlng": "43.3919145,-80.4389555",
        "postal": "N2P 3A4",
        "lic_status": "Issued",
        "citytown": "Kitchener",
        "lic_number": "T0526",
        "documents": [],
        "previously_known_as": [
            {
                "name": "Doon Village Retirement Residence",
                "until": "July 7, 2022"
            }
        ]
    },
    "67b5c7c5c3756": {
        "id": "67b5c7c5c3756",
        "name": "Aspira Douglas Crossing Retirement Living",
        "streetaddress": "6 Douglas Road",
        "latlng": "44.0911887,-79.1305984",
        "postal": "L9P 1S9",
        "lic_status": "Issued",
        "citytown": "Uxbridge",
        "lic_number": "T0621",
        "documents": [],
        "previously_known_as": []
    },
    "669f9b4464ea3": {
        "id": "669f9b4464ea3",
        "name": "Aspira Empire Crossing Retirement Living",
        "streetaddress": "224 Ward Street",
        "latlng": "43.9603907,-78.2738471",
        "postal": "L1A 0C5",
        "lic_status": "Issued",
        "citytown": "Port Hope",
        "lic_number": "T0619",
        "documents": [],
        "previously_known_as": []
    },
    "67c053c61ca32": {
        "id": "67c053c61ca32",
        "name": "Aspira Harvest Crossing Retirement Living",
        "streetaddress": "15 Harvest Avenue",
        "latlng": "42.8592822,-80.7032489",
        "postal": "N4G 0E2",
        "lic_status": "Issued",
        "citytown": "Tillsonburg",
        "lic_number": "S0543",
        "documents": [],
        "previously_known_as": []
    },
    "677e68c609a7e": {
        "id": "677e68c609a7e",
        "name": "Aspira Heatherwood Retirement Living",
        "streetaddress": "113 Scott Street",
        "latlng": "43.1806392,-79.2550702",
        "postal": "L2N 7L2",
        "lic_status": "Issued",
        "citytown": "St. Catharines",
        "lic_number": "S0448",
        "documents": [],
        "previously_known_as": [
            {
                "name": "Heatherwood Retirement Residence",
                "until": "May 26, 2022"
            }
        ]
    },
    "67e53dc6d9738": {
        "id": "67e53dc6d9738",
        "name": "Aspira Island Park Retirement Living",
        "streetaddress": "18 Trent Drive",
        "latlng": "44.2928537,-77.8030426",
        "postal": "K0L 1L0",
        "lic_status": "Issued",
        "citytown": "Campbellford",
        "lic_number": "T0287",
        "documents": [],
        "previously_known_as": [
            {
                "name": "Island Park Residence",
                "until": "May 1, 2015"
            },
            {
                "name": "Island Park Retirement Residence",
                "until": "May 1, 2015"
            }
        ]
    },
    "677d1747160b4": {
        "id": "677d1747160b4",
        "name": "Aspira Island View Retirement Living",
        "streetaddress": "30 Jack Crescent",
        "latlng": "45.4325884,-76.3472347",
        "postal": "K7S 3Y7",
        "lic_status": "Issued",
        "citytown": "Arnprior",
        "lic_number": "N0477",
        "documents": [],
        "previously_known_as": [
            {
                "name": "Island View Retirement Residence",
                "until": "July 7, 2022"
            }
        ]
    },
    "672a08c4b3830": {
        "id": "672a08c4b3830",
        "name": "Aspira Kawartha Lakes Retirement Living",
        "streetaddress": "60 West Street",
        "latlng": "44.5382235,-78.5565554",
        "postal": "K0M 1A0",
        "lic_status": "Issued",
        "citytown": "Bobcaygeon",
        "lic_number": "N0463",
        "documents": [],
        "previously_known_as": [
            {
                "name": "Kawartha Lakes Retirement Residence",
                "until": "May 26, 2022"
            }
        ]
    },
    "676aa245b1e24": {
        "id": "676aa245b1e24",
        "name": "Aspira Kensington Place Retirement Living",
        "streetaddress": "866 Sheppard Avenue  W.",
        "latlng": "43.752649,-79.4540014",
        "postal": "M3H 2T5",
        "lic_status": "Issued",
        "citytown": "Toronto",
        "lic_number": "T0524",
        "documents": [],
        "previously_known_as": [
            {
                "name": "Kensington Place Retirement Residence",
                "until": "July 7, 2022"
            }
        ]
    },
    "67b86ac7aabef": {
        "id": "67b86ac7aabef",
        "name": "Aspira Kingsmere Retirement Living",
        "streetaddress": "287 King Street  S.",
        "latlng": "44.1380289,-79.8743961",
        "postal": "L9R 0C4",
        "lic_status": "Issued",
        "citytown": "Alliston",
        "lic_number": "T0527",
        "documents": [],
        "previously_known_as": [
            {
                "name": "Kingsmere Retirement Residence",
                "until": "July 7, 2022"
            }
        ]
    },
    "67d2c8c461a19": {
        "id": "67d2c8c461a19",
        "name": "Aspira Lincoln Park Retirement Living",
        "streetaddress": "265 Main Street  E.",
        "latlng": "43.1859865,-79.5264893",
        "postal": "L3M 1P7",
        "lic_status": "Issued",
        "citytown": "Grimsby",
        "lic_number": "S0237",
        "documents": [],
        "previously_known_as": [
            {
                "name": "Lincoln Park Residence",
                "until": "May 1, 2015"
            },
            {
                "name": "Lincoln Park Retirement Residence",
                "until": "May 1, 2015"
            }
        ]
    },
    "66c879c6a227f": {
        "id": "66c879c6a227f",
        "name": "Aspira Lynde Creek Gardens Retirement Living",
        "streetaddress": "50 Paul Burns Way",
        "latlng": "43.9109031,-78.9623648",
        "postal": "L1R 2Y9",
        "lic_status": "Issued",
        "citytown": "Whitby",
        "lic_number": "T0618",
        "documents": [],
        "previously_known_as": [
            {
                "name": "Aspira Lynde Creek Manor Retirement Living",
                "until": "October 19, 2022"
            },
            {
                "name": "Lynde Creek Manor",
                "until": "October 19, 2022"
            }
        ]
    },
    "67d96045c3062": {
        "id": "67d96045c3062",
        "name": "Aspira Martindale Gardens Retirement Living",
        "streetaddress": "45 Martin Street",
        "latlng": "43.5146296,-79.8834779",
        "postal": "L9T 2R1",
        "lic_status": "Issued",
        "citytown": "Milton",
        "lic_number": "T0523",
        "documents": [],
        "previously_known_as": [
            {
                "name": "Martindale Gardens Retirement Residence",
                "until": "July 7, 2022"
            }
        ]
    },
    "675c21c6019e9": {
        "id": "675c21c6019e9",
        "name": "Aspira Quinte Gardens Retirement Living",
        "streetaddress": "30 College Street  W.",
        "latlng": "44.176672,-77.3926407",
        "postal": "K8P 0A9",
        "lic_status": "Issued",
        "citytown": "Belleville",
        "lic_number": "N0476",
        "documents": [],
        "previously_known_as": []
    },
    "67b719456ba71": {
        "id": "67b719456ba71",
        "name": "Aspira Red Oak Retirement Living",
        "streetaddress": "3501 Campeau Drive",
        "latlng": "45.3160467,-75.9006407",
        "postal": "K2K 0C1",
        "lic_status": "Issued",
        "citytown": "Kanata",
        "lic_number": "N0190",
        "documents": [],
        "previously_known_as": [
            {
                "name": "Red Oak Retirement Residence",
                "until": "May 1, 2015"
            },
            {
                "name": "The Royale Kanata",
                "until": "May 1, 2015"
            }
        ]
    },
    "656f10c317f0d": {
        "id": "656f10c317f0d",
        "name": "Aspira Rosewood Retirement Living",
        "streetaddress": "833 Sutton Mills Court",
        "latlng": "44.2550382,-76.5751311",
        "postal": "K7P 2N9",
        "lic_status": "Issued",
        "citytown": "Kingston",
        "lic_number": "N0458",
        "documents": [],
        "previously_known_as": [
            {
                "name": "Rosewood Retirement Residence",
                "until": "May 26, 2022"
            }
        ]
    },
    "67ab3bc45ae38": {
        "id": "67ab3bc45ae38",
        "name": "Aspira Royale Place Retirement Living",
        "streetaddress": "2485 Princess Street",
        "latlng": "44.2576858,-76.5662477",
        "postal": "K7M 3G1",
        "lic_status": "Issued",
        "citytown": "Kingston",
        "lic_number": "N0197",
        "documents": [],
        "previously_known_as": [
            {
                "name": "Royale Place Retirement Residence",
                "until": "May 1, 2015"
            },
            {
                "name": "The Royale Kingston",
                "until": "May 1, 2015"
            }
        ]
    },
    "67b081c4b11e1": {
        "id": "67b081c4b11e1",
        "name": "Aspira The Barrieview Retirement Living",
        "streetaddress": "3 Concert Way",
        "latlng": "44.3431774,-79.6800183",
        "postal": "L4N 6N5",
        "lic_status": "Issued",
        "citytown": "Barrie",
        "lic_number": "N0564",
        "documents": [],
        "previously_known_as": []
    },
    "67ebd545ba4d0": {
        "id": "67ebd545ba4d0",
        "name": "Aspira Traditions of Durham Retirement Living",
        "streetaddress": "1255 Bloor Street  E.",
        "latlng": "43.8901291,-78.8102037",
        "postal": "L1H 0B3",
        "lic_status": "Issued",
        "citytown": "Oshawa",
        "lic_number": "T0460",
        "documents": [],
        "previously_known_as": [
            {
                "name": "Traditions of Durham Retirement Residence",
                "until": "May 26, 2022"
            }
        ]
    },
    "679e0cc63fb92": {
        "id": "679e0cc63fb92",
        "name": "Aspira Villa Da Vinci Retirement Living",
        "streetaddress": "7371 Martin Grove Road",
        "latlng": "43.7666215,-79.6066048",
        "postal": "L4L 9N2",
        "lic_status": "Issued",
        "citytown": "Woodbridge",
        "lic_number": "T0525",
        "documents": [],
        "previously_known_as": [
            {
                "name": "Villa Da Vinci Retirement Residence",
                "until": "July 7, 2022"
            }
        ]
    },
    "67dc03459ceeb": {
        "id": "67dc03459ceeb",
        "name": "Aspira Waterford Barrie Retirement Living",
        "streetaddress": "132 Edgehill Drive",
        "latlng": "44.3852698,-79.711898",
        "postal": "L4N 1M1",
        "lic_status": "Issued",
        "citytown": "Barrie",
        "lic_number": "N0471",
        "documents": [],
        "previously_known_as": [
            {
                "name": "Waterford Barrie Retirement Residence",
                "until": "May 26, 2022"
            }
        ]
    },
    "67f11b44676f2": {
        "id": "67f11b44676f2",
        "name": "Aspira Waterford Kingston Retirement Living",
        "streetaddress": "471 Cataraqui Woods Drive",
        "latlng": "44.2689829,-76.5581262",
        "postal": "K7P 0E6",
        "lic_status": "Issued",
        "citytown": "Kingston",
        "lic_number": "N0470",
        "documents": [],
        "previously_known_as": [
            {
                "name": "Waterford Kingston Retirement Residence",
                "until": "May 26, 2022"
            }
        ]
    },
    "671cd9c7bacb4": {
        "id": "671cd9c7bacb4",
        "name": "Atrium Retirement Residence",
        "streetaddress": "230 Coldwater Road  W.",
        "latlng": "44.6099021,-79.4334816",
        "postal": "L3V 3M2",
        "lic_status": "Issued",
        "citytown": "Orillia",
        "lic_number": "N0355",
        "documents": [],
        "previously_known_as": []
    },
    "6710fc45d3407": {
        "id": "6710fc45d3407",
        "name": "Auberge Plein Soleil",
        "streetaddress": "258 Telegraphe Road",
        "latlng": "45.5595297,-74.8785155",
        "postal": "K0B 1A0",
        "lic_status": "Issued",
        "citytown": "Alfred",
        "lic_number": "N0525",
        "documents": [],
        "previously_known_as": []
    },
    "67c053c62b488": {
        "id": "67c053c62b488",
        "name": "Augustine Villas Retirement Home And Assisted Living",
        "streetaddress": "54 Spruce Street  N.",
        "latlng": "42.039955,-82.736706",
        "postal": "N9Y 3J1",
        "lic_status": "Issued",
        "citytown": "Kingsville",
        "lic_number": "S0456",
        "documents": [],
        "previously_known_as": []
    },
    "6777d146831b5": {
        "id": "6777d146831b5",
        "name": "Avalon Retirement Lodge",
        "streetaddress": "355 Broadway Avenue",
        "latlng": "43.9169909,-80.1165015",
        "postal": "L9W 3Y3",
        "lic_status": "Issued",
        "citytown": "Orangeville",
        "lic_number": "T0159",
        "documents": [],
        "previously_known_as": []
    },
    "667c02c3e1c6e": {
        "id": "667c02c3e1c6e",
        "name": "Aylmer Retirement Residence",
        "streetaddress": "258 Talbot Street  E.",
        "latlng": "42.7727475,-80.9780358",
        "postal": "N5H 1H7",
        "lic_status": "Issued",
        "citytown": "Aylmer",
        "lic_number": "S0435",
        "documents": [],
        "previously_known_as": []
    },
    "66b75646a12c4": {
        "id": "66b75646a12c4",
        "name": "Barclay House Retirement Residence",
        "streetaddress": "600 Chippewa Street  W.",
        "latlng": "46.3241089,-79.4489145",
        "postal": "P1B 9E7",
        "lic_status": "Issued",
        "citytown": "North Bay",
        "lic_number": "N0560",
        "documents": [],
        "previously_known_as": []
    },
    "6788f4c5549e1": {
        "id": "6788f4c5549e1",
        "name": "Barrhaven Manor",
        "streetaddress": "110 Berrigan Drive",
        "latlng": "45.277689,-75.742267",
        "postal": "K2J 5A6",
        "lic_status": "Issued",
        "citytown": "Ottawa",
        "lic_number": "N0394",
        "documents": [],
        "previously_known_as": []
    },
    "67b86ac6b404c": {
        "id": "67b86ac6b404c",
        "name": "Barrie Manor Senior Living",
        "streetaddress": "340 Blake Street",
        "latlng": "44.3979734,-79.6557211",
        "postal": "L4M 1L3",
        "lic_status": "Issued",
        "citytown": "Barrie",
        "lic_number": "N0574",
        "documents": [],
        "previously_known_as": []
    },
    "66a23e444e780": {
        "id": "66a23e444e780",
        "name": "Bay Haven Senior Care Community",
        "streetaddress": "499 Hume Street",
        "latlng": "44.4994546,-80.1980283",
        "postal": "L9Y 4H8",
        "lic_status": "Issued",
        "citytown": "Collingwood",
        "lic_number": "N0103",
        "documents": [],
        "previously_known_as": []
    },
    "67c053c59d4bd": {
        "id": "67c053c59d4bd",
        "name": "Baycrest Terraces",
        "streetaddress": "55 Ameer Avenue",
        "latlng": "43.72891,-79.44038",
        "postal": "M6A 2Z1",
        "lic_status": "Issued",
        "citytown": "Toronto",
        "lic_number": "T0021",
        "documents": [],
        "previously_known_as": []
    },
    "671cd9c697aeb": {
        "id": "671cd9c697aeb",
        "name": "Bayfield House Retirement Lodge",
        "streetaddress": "5 Beck Boulevard",
        "latlng": "44.7745614,-79.9372841",
        "postal": "L9M 1C1",
        "lic_status": "Issued",
        "citytown": "Penetanguishene",
        "lic_number": "N0124",
        "documents": [],
        "previously_known_as": []
    },
    "67dea644bc8dc": {
        "id": "67dea644bc8dc",
        "name": "Bayfield Manor Retirement Community",
        "streetaddress": "100 Elvira Street",
        "latlng": "45.0190674,-75.653031",
        "postal": "K0G 1J0",
        "lic_status": "Issued",
        "citytown": "Kemptville",
        "lic_number": "N0389",
        "documents": [],
        "previously_known_as": []
    },
    "67e3ec46422ad": {
        "id": "67e3ec46422ad",
        "name": "Bayview Retirement Home",
        "streetaddress": "175 Walnut Street",
        "latlng": "44.7520281,-79.708294",
        "postal": "L0K 2C0",
        "lic_status": "Issued",
        "citytown": "Waubaushene",
        "lic_number": "N0449",
        "documents": [],
        "previously_known_as": []
    },
    "66a23e4496552": {
        "id": "66a23e4496552",
        "name": "Beacon Heights Retirement Residence",
        "streetaddress": "2201 Montreal Road",
        "latlng": "45.4508425,-75.5870241",
        "postal": "K1J 0B4",
        "lic_status": "Issued",
        "citytown": "Ottawa",
        "lic_number": "N0104",
        "documents": [],
        "previously_known_as": []
    },
    "67d1774455e63": {
        "id": "67d1774455e63",
        "name": "Bear Creek Terrace",
        "streetaddress": "437 First Avenue",
        "latlng": "42.8781782,-82.137161",
        "postal": "N0N 1R0",
        "lic_status": "Issued",
        "citytown": "Petrolia",
        "lic_number": "S0553",
        "documents": [],
        "previously_known_as": [
            {
                "name": "Fiddick's Retirement Home",
                "until": "June 19, 2023"
            }
        ]
    },
    "67810bc59b3e7": {
        "id": "67810bc59b3e7",
        "name": "Beattie Manor",
        "streetaddress": "23328 Beattie Line",
        "latlng": "42.6485984,-81.7499161",
        "postal": "N0L 2N0",
        "lic_status": "Issued",
        "citytown": "Wardsville",
        "lic_number": "S0401",
        "documents": [],
        "previously_known_as": [
            {
                "name": "Beattie Manor",
                "until": "January 17, 2025"
            }
        ]
    },
    "67e3ec4671505": {
        "id": "67e3ec4671505",
        "name": "Beechwood Manor",
        "streetaddress": "305 Erb Street  W.",
        "latlng": "43.4562349,-80.5420871",
        "postal": "N2L 1W4",
        "lic_status": "Issued",
        "citytown": "Waterloo",
        "lic_number": "T0554",
        "documents": [],
        "previously_known_as": []
    },
    "67a201465ad5a": {
        "id": "67a201465ad5a",
        "name": "Belcourt residence pour retrait\u00e9s",
        "streetaddress": "1344 Belcourt Blvd",
        "latlng": "45.4709866,-75.5224652",
        "postal": "K1C 1L9",
        "lic_status": "Issued",
        "citytown": "Orleans",
        "lic_number": "N01930",
        "documents": [],
        "previously_known_as": []
    },
    "6571b3c31f4d2": {
        "id": "6571b3c31f4d2",
        "name": "Belmont House",
        "streetaddress": "55 Belmont Street",
        "latlng": "43.6746291,-79.3909536",
        "postal": "M5R 1R1",
        "lic_status": "Issued",
        "citytown": "Toronto",
        "lic_number": "T0187",
        "documents": [],
        "previously_known_as": []
    },
    "67bdb0c6709fe": {
        "id": "67bdb0c6709fe",
        "name": "Bertram Place Retirement Living Centre",
        "streetaddress": "21 Hatt Street",
        "latlng": "43.2650449,-79.9550811",
        "postal": "L9H 2E9",
        "lic_status": "Issued",
        "citytown": "Dundas",
        "lic_number": "S0025",
        "documents": [],
        "previously_known_as": []
    },
    "674ef2c3e5108": {
        "id": "674ef2c3e5108",
        "name": "Bethany Care Home",
        "streetaddress": "35 Main Street  E.   Unit 1",
        "latlng": "42.9894759,-80.5925317",
        "postal": "N0J 1P0",
        "lic_status": "Issued",
        "citytown": "Norwich",
        "lic_number": "S0477",
        "documents": [],
        "previously_known_as": []
    },
    "66dc4045ca26e": {
        "id": "66dc4045ca26e",
        "name": "Bethsaida Retirement Home Ltd",
        "streetaddress": "3 Hillside Drive",
        "latlng": "43.915426,-80.1010749",
        "postal": "L9W 1P5",
        "lic_status": "Issued",
        "citytown": "Orangeville",
        "lic_number": "T0245",
        "documents": [],
        "previously_known_as": []
    },
    "67d96045745b6": {
        "id": "67d96045745b6",
        "name": "Bethseda Home",
        "streetaddress": "4 Partridge Lane",
        "latlng": "43.7990443,-79.2992174",
        "postal": "M1T 3C6",
        "lic_status": "Issued",
        "citytown": "Scarborough",
        "lic_number": "T0290",
        "documents": [],
        "previously_known_as": []
    },
    "66040a436bd2e": {
        "id": "66040a436bd2e",
        "name": "Bethseda Home (67)",
        "streetaddress": "67 Belgreen Avenue",
        "latlng": "43.7952367,-79.2903674",
        "postal": "M1S 1H5",
        "lic_status": "Issued",
        "citytown": "Scarborough",
        "lic_number": "T0294",
        "documents": [],
        "previously_known_as": []
    },
    "6481c2c361ce2": {
        "id": "6481c2c361ce2",
        "name": "Bethseda Home (76)",
        "streetaddress": "76 Silversted Drive",
        "latlng": "43.8018196,-79.2662355",
        "postal": "M1S 3A5",
        "lic_status": "Issued",
        "citytown": "Scarborough",
        "lic_number": "T0291",
        "documents": [],
        "previously_known_as": []
    },
    "67a4a445952ce": {
        "id": "67a4a445952ce",
        "name": "Bill McMurray Residence",
        "streetaddress": "180 Sheridan Avenue",
        "latlng": "43.6515776,-79.4346556",
        "postal": "M6K 3C7",
        "lic_status": "Issued",
        "citytown": "Toronto",
        "lic_number": "T0189",
        "documents": [],
        "previously_known_as": []
    },
    "67e68f46156da": {
        "id": "67e68f46156da",
        "name": "Billings Lodge Retirement Community",
        "streetaddress": "1180 Belanger Avenue",
        "latlng": "45.383449,-75.6727029",
        "postal": "K1H 8N2",
        "lic_status": "Issued",
        "citytown": "Ottawa",
        "lic_number": "N0528",
        "documents": [],
        "previously_known_as": []
    },
    "67c98e4586f12": {
        "id": "67c98e4586f12",
        "name": "Billingswood Manor",
        "streetaddress": "1370 Bank Street",
        "latlng": "45.3849823,-75.6734362",
        "postal": "K1H 8N6",
        "lic_status": "Issued",
        "citytown": "Ottawa",
        "lic_number": "N0551",
        "documents": [],
        "previously_known_as": []
    },
    "66152dc487d12": {
        "id": "66152dc487d12",
        "name": "Birchmere Retirement Residence",
        "streetaddress": "234 Bay Street",
        "latlng": "44.6197586,-79.4139184",
        "postal": "L3V 3W8",
        "lic_status": "Issued",
        "citytown": "Orillia",
        "lic_number": "N0026",
        "documents": [],
        "previously_known_as": []
    },
    "679380c612259": {
        "id": "679380c612259",
        "name": "Birkdale Place Seniors Community",
        "streetaddress": "611 Farmstead Drive",
        "latlng": "43.5002715,-79.8671094",
        "postal": "L9T 7Y8",
        "lic_status": "Issued",
        "citytown": "Milton",
        "lic_number": "S0384",
        "documents": [],
        "previously_known_as": []
    },
    "67d17744c2d16": {
        "id": "67d17744c2d16",
        "name": "Birmingham Retirement Community",
        "streetaddress": "356A Birmingham Street  E.",
        "latlng": "43.9852901,-80.7334381",
        "postal": "N0G 2L2",
        "lic_status": "Issued",
        "citytown": "Mount Forest",
        "lic_number": "T0536",
        "documents": [],
        "previously_known_as": []
    },
    "65ddcec2b0ad1": {
        "id": "65ddcec2b0ad1",
        "name": "Blackburn Seniors Retirement Home",
        "streetaddress": "2412 Cleroux Crescent",
        "latlng": "45.4359369,-75.5486675",
        "postal": "K1W 1A3",
        "lic_status": "Issued",
        "citytown": "Ottawa",
        "lic_number": "N0475",
        "documents": [],
        "previously_known_as": []
    },
    "67e3ec4633039": {
        "id": "67e3ec4633039",
        "name": "Blenheim Community Village",
        "streetaddress": "10 Mary Avenue",
        "latlng": "42.3397084,-81.9879951",
        "postal": "N0P 1A0",
        "lic_status": "Issued",
        "citytown": "Blenheim",
        "lic_number": "S0184",
        "documents": [],
        "previously_known_as": []
    },
    "67d1774497996": {
        "id": "67d1774497996",
        "name": "Bloom",
        "streetaddress": "1224 Coldstream Drive",
        "latlng": "43.94604,-78.84747",
        "postal": "L1K 0J6",
        "lic_status": "Issued",
        "citytown": "Oshawa",
        "lic_number": "T0604",
        "documents": [],
        "previously_known_as": []
    },
    "676fe845a3b46": {
        "id": "676fe845a3b46",
        "name": "Bloom Lindsay",
        "streetaddress": "12 Thornhill Road",
        "latlng": "44.3518914,-78.7617723",
        "postal": "K9V 6K2",
        "lic_status": "Issued",
        "citytown": "Lindsay",
        "lic_number": "T01495",
        "documents": [],
        "previously_known_as": []
    },
    "67a2014521cbe": {
        "id": "67a2014521cbe",
        "name": "Bloom Stouffville",
        "streetaddress": "135 Mostar St.",
        "latlng": "43.9671612,-79.2656294",
        "postal": "L4A 4X6",
        "lic_status": "Issued",
        "citytown": "Whitchurch-Stouffville",
        "lic_number": "T0612",
        "documents": [],
        "previously_known_as": []
    },
    "67c2f6c66ad5c": {
        "id": "67c2f6c66ad5c",
        "name": "Blue Mountain Manor",
        "streetaddress": "236 Weir Street",
        "latlng": "44.421973,-80.0836139",
        "postal": "L0M 1S0",
        "lic_status": "Issued",
        "citytown": "Stayner",
        "lic_number": "N0494",
        "documents": [],
        "previously_known_as": []
    },
    "675d73464095b": {
        "id": "675d73464095b",
        "name": "Bonnie Manor",
        "streetaddress": "543 Gough Street  PO BOX 98",
        "latlng": "43.9646356,-81.5107125",
        "postal": "N0G 2H0",
        "lic_status": "Issued",
        "citytown": "Lucknow",
        "lic_number": "S01339",
        "documents": [],
        "previously_known_as": []
    },
    "679a184541092": {
        "id": "679a184541092",
        "name": "Bough Beeches Place",
        "streetaddress": "1130 Bough Beeches Boulevard",
        "latlng": "43.6259858,-79.6004615",
        "postal": "L4W 4G3",
        "lic_status": "Issued",
        "citytown": "Mississauga",
        "lic_number": "T0263",
        "documents": [],
        "previously_known_as": []
    },
    "679a1844bc97e": {
        "id": "679a1844bc97e",
        "name": "Bradgate Arms",
        "streetaddress": "54 Foxbar Rd",
        "latlng": "43.6856544,-79.4006657",
        "postal": "M4V 2G6",
        "lic_status": "Issued",
        "citytown": "Toronto",
        "lic_number": "T01418",
        "documents": [],
        "previously_known_as": []
    },
    "67af30452627c": {
        "id": "67af30452627c",
        "name": "Bramalea Retirement Residence",
        "streetaddress": "30 Peel Centre Drive",
        "latlng": "43.716682,-79.7250017",
        "postal": "L6T 4G8",
        "lic_status": "Issued",
        "citytown": "Brampton",
        "lic_number": "T0396",
        "documents": [],
        "previously_known_as": []
    },
    "67b5c7c63e202": {
        "id": "67b5c7c63e202",
        "name": "Briarfield Gardens",
        "streetaddress": "1250 Weber Street  E.",
        "latlng": "43.4344785,-80.4437001",
        "postal": "N2A 4E1",
        "lic_status": "Issued",
        "citytown": "Kitchener",
        "lic_number": "T0486",
        "documents": [],
        "previously_known_as": []
    },
    "670913454a149": {
        "id": "670913454a149",
        "name": "Briargate",
        "streetaddress": "4567 Bath Road",
        "latlng": "44.2178808,-76.6544329",
        "postal": "K7N 1A8",
        "lic_status": "Issued",
        "citytown": "Amherstview",
        "lic_number": "N0376",
        "documents": [],
        "previously_known_as": []
    },
    "672f4ec68a41a": {
        "id": "672f4ec68a41a",
        "name": "Bridlewood Manor",
        "streetaddress": "1026 Bridlewood Drive",
        "latlng": "44.6178486,-75.7028661",
        "postal": "K6V 7J8",
        "lic_status": "Issued",
        "citytown": "Brockville",
        "lic_number": "N0377",
        "documents": [],
        "previously_known_as": []
    },
    "66ae1bc5da6b8": {
        "id": "66ae1bc5da6b8",
        "name": "Bridlewood Retirement Residence",
        "streetaddress": "3998 Bridle Path Dr",
        "latlng": "45.348492,-75.6463187",
        "postal": "K1T 4H4",
        "lic_status": "Issued",
        "citytown": "Gloucester",
        "lic_number": "N01394",
        "documents": [],
        "previously_known_as": []
    },
    "66322ec45d8c2": {
        "id": "66322ec45d8c2",
        "name": "Bridlewood Trails Retirement Community",
        "streetaddress": "480 Brigitta Street",
        "latlng": "45.2742018,-75.8609001",
        "postal": "K2S 0K7",
        "lic_status": "Issued",
        "citytown": "Ottawa",
        "lic_number": "N0036",
        "documents": [],
        "previously_known_as": []
    },
    "67e29ac63d42a": {
        "id": "67e29ac63d42a",
        "name": "Brierwood Gardens",
        "streetaddress": "425 Park Road  N.",
        "latlng": "43.1785314,-80.2474737",
        "postal": "N3R 7G5",
        "lic_status": "Issued",
        "citytown": "Brantford",
        "lic_number": "S0178",
        "documents": [],
        "previously_known_as": []
    },
    "673c7dc6116b6": {
        "id": "673c7dc6116b6",
        "name": "Brighton Retirement Living",
        "streetaddress": "291 Main Street",
        "latlng": "44.03782,-77.7549039",
        "postal": "K0K 1H0",
        "lic_status": "Issued",
        "citytown": "Brighton",
        "lic_number": "N01214",
        "documents": [],
        "previously_known_as": []
    },
    "65cb59c3d7542": {
        "id": "65cb59c3d7542",
        "name": "Broadview Retirement Lodge",
        "streetaddress": "210 Brockville Street",
        "latlng": "44.8875858,-76.0206649",
        "postal": "K7A 3Z4",
        "lic_status": "Issued",
        "citytown": "Smiths Falls",
        "lic_number": "N0181",
        "documents": [],
        "previously_known_as": []
    },
    "67e7e0c6234c1": {
        "id": "67e7e0c6234c1",
        "name": "Brookside Court/Hilltop Place",
        "streetaddress": "980-1000 Elgin Mills Road",
        "latlng": "43.8966375,-79.4129545",
        "postal": "L4S 1M4",
        "lic_status": "Issued",
        "citytown": "Richmond Hill",
        "lic_number": "T0595",
        "documents": [],
        "previously_known_as": []
    },
    "67c2f6c58fdf3": {
        "id": "67c2f6c58fdf3",
        "name": "Brookside Retirement Living",
        "streetaddress": "20 Shirley's Brook Drive",
        "latlng": "45.352755,-75.9225073",
        "postal": "K2K 2W8",
        "lic_status": "Issued",
        "citytown": "Kanata",
        "lic_number": "N0582",
        "documents": [],
        "previously_known_as": [
            {
                "name": "Chartwell Kanata Retirement Residence",
                "until": "March 24, 2023"
            }
        ]
    },
    "67a352c5ea66d": {
        "id": "67a352c5ea66d",
        "name": "Brookside Retirement Living",
        "streetaddress": "7835 Confederation Line",
        "latlng": "42.9552045,-81.8831252",
        "postal": "N0M 2S0",
        "lic_status": "Issued",
        "citytown": "Watford",
        "lic_number": "S0017",
        "documents": [],
        "previously_known_as": []
    },
    "66c090c709728": {
        "id": "66c090c709728",
        "name": "Buckingham Manor",
        "streetaddress": "6257 Main Street",
        "latlng": "43.9708059,-79.2483967",
        "postal": "L4A 4J3",
        "lic_status": "Issued",
        "citytown": "Stouffville",
        "lic_number": "T0154",
        "documents": [],
        "previously_known_as": []
    },
    "67e3ec46a5a30": {
        "id": "67e3ec46a5a30",
        "name": "Butternut Manor",
        "streetaddress": "3 Norm Goodspeed Drive",
        "latlng": "44.1046983,-79.1395734",
        "postal": "L9P 0B7",
        "lic_status": "Issued",
        "citytown": "Uxbridge",
        "lic_number": "T0070",
        "documents": [],
        "previously_known_as": []
    },
    "67012a4553d14": {
        "id": "67012a4553d14",
        "name": "Camilla Gardens Retirement Home",
        "streetaddress": "1119 Bathgate Drive",
        "latlng": "45.4325743,-75.6177295",
        "postal": "K1J 9N4",
        "lic_status": "Issued",
        "citytown": "Gloucester",
        "lic_number": "N0226",
        "documents": [],
        "previously_known_as": []
    },
    "66acca450e419": {
        "id": "66acca450e419",
        "name": "Canterbury Gardens Retirement Residence",
        "streetaddress": "1414 Sherbrooke Street",
        "latlng": "44.29236,-78.36069",
        "postal": "K9J 0B1",
        "lic_status": "Issued",
        "citytown": "Peterborough",
        "lic_number": "T0004",
        "documents": [],
        "previously_known_as": []
    },
    "66d1b44541db6": {
        "id": "66d1b44541db6",
        "name": "Canterbury Place Retirement Residence",
        "streetaddress": "1 Canterbury Place",
        "latlng": "43.7722235,-79.4143853",
        "postal": "M2N 0G7",
        "lic_status": "Issued",
        "citytown": "North York",
        "lic_number": "T0059",
        "documents": [],
        "previously_known_as": []
    },
    "67c053c60dc65": {
        "id": "67c053c60dc65",
        "name": "Cardinal Place",
        "streetaddress": "3140 Peter Street",
        "latlng": "42.3030237,-83.0738453",
        "postal": "N9C 1H3",
        "lic_status": "Issued",
        "citytown": "Windsor",
        "lic_number": "S0353",
        "documents": [],
        "previously_known_as": []
    },
    "670faac84fce2": {
        "id": "670faac84fce2",
        "name": "Carefirst Transitional Care Centre",
        "streetaddress": "300 Silver Star Boulevard",
        "latlng": "43.8125721,-79.2949254",
        "postal": "M1V 5P1",
        "lic_status": "Issued",
        "citytown": "Scarborough",
        "lic_number": "T0410",
        "documents": [],
        "previously_known_as": []
    },
    "67221fc5ad47a": {
        "id": "67221fc5ad47a",
        "name": "Carefor Civic Complex",
        "streetaddress": "425 Cecelia Street",
        "latlng": "45.820964,-77.101706",
        "postal": "K8A 1S7",
        "lic_status": "Issued",
        "citytown": "Pembroke",
        "lic_number": "N0162",
        "documents": [],
        "previously_known_as": [
            {
                "name": "Pembroke Civic Complex",
                "until": "October 26, 2016"
            }
        ]
    },
    "67e68f45e0db9": {
        "id": "67e68f45e0db9",
        "name": "Carefor Mackay Centre",
        "streetaddress": "700 MacKay Street",
        "latlng": "45.8148097,-77.1093806",
        "postal": "K8A 1G6",
        "lic_status": "Issued",
        "citytown": "Pembroke",
        "lic_number": "N0405",
        "documents": [],
        "previously_known_as": []
    },
    "67d2c8c3d9075": {
        "id": "67d2c8c3d9075",
        "name": "Caressant Care - Arthur",
        "streetaddress": "215 Eliza Street",
        "latlng": "43.8316906,-80.5298672",
        "postal": "N0G 1Z0",
        "lic_status": "Issued",
        "citytown": "Arthur",
        "lic_number": "T0032",
        "documents": [],
        "previously_known_as": []
    },
    "65cf4e43018b5": {
        "id": "65cf4e43018b5",
        "name": "Caressant Care - Cobden",
        "streetaddress": "12 Wren Drive",
        "latlng": "45.6285216,-76.8875145",
        "postal": "K0J 1K0",
        "lic_status": "Issued",
        "citytown": "Cobden",
        "lic_number": "N0024",
        "documents": [],
        "previously_known_as": []
    },
    "675044459e681": {
        "id": "675044459e681",
        "name": "Caressant Care - Fergus",
        "streetaddress": "450 Queen Street  E.",
        "latlng": "43.7085979,-80.3702574",
        "postal": "N1M 2Y7",
        "lic_status": "Issued",
        "citytown": "Fergus",
        "lic_number": "T0031",
        "documents": [],
        "previously_known_as": []
    },
    "67a201449c57c": {
        "id": "67a201449c57c",
        "name": "Caressant Care - Harriston",
        "streetaddress": "24 Louise Street",
        "latlng": "43.9156256,-80.8780335",
        "postal": "N0G 1Z0",
        "lic_status": "Issued",
        "citytown": "Harriston",
        "lic_number": "T0033",
        "documents": [],
        "previously_known_as": []
    },
    "67dea644ae3ac": {
        "id": "67dea644ae3ac",
        "name": "Caressant Care - Lindsay",
        "streetaddress": "240 Mary Street  W.",
        "latlng": "44.3433031,-78.7497019",
        "postal": "K9V 5K5",
        "lic_status": "Issued",
        "citytown": "Lindsay",
        "lic_number": "T0030",
        "documents": [],
        "previously_known_as": []
    },
    "67bdb0c58d54c": {
        "id": "67bdb0c58d54c",
        "name": "Caressant Care - Listowel",
        "streetaddress": "710 Reserve Avenue  S.",
        "latlng": "43.7237809,-80.9529974",
        "postal": "N4W 2L1",
        "lic_status": "Issued",
        "citytown": "Listowel",
        "lic_number": "S0022",
        "documents": [],
        "previously_known_as": []
    },
    "656f10c22c1c8": {
        "id": "656f10c22c1c8",
        "name": "Caressant Care - Marmora",
        "streetaddress": "58 Bursthall Street",
        "latlng": "44.48025,-77.67811",
        "postal": "K0K 2M0",
        "lic_status": "Issued",
        "citytown": "Marmora",
        "lic_number": "N0025",
        "documents": [],
        "previously_known_as": []
    },
    "67d96044eb04f": {
        "id": "67d96044eb04f",
        "name": "Caressant Care - The Maples Home for Seniors",
        "streetaddress": "94 William Street",
        "latlng": "43.3173338,-80.8384276",
        "postal": "N0B 2R0",
        "lic_status": "Issued",
        "citytown": "Tavistock",
        "lic_number": "S0023",
        "documents": [],
        "previously_known_as": [
            {
                "name": "The Maples Home for Seniors",
                "until": "November 6, 2020"
            }
        ]
    },
    "67b081c4687b0": {
        "id": "67b081c4687b0",
        "name": "Caressant Care - Woodstock",
        "streetaddress": "81 Fyfe Avenue",
        "latlng": "43.123624,-80.7422373",
        "postal": "N4S 8Y2",
        "lic_status": "Issued",
        "citytown": "Woodstock",
        "lic_number": "S0024",
        "documents": [],
        "previously_known_as": []
    },
    "66c879c5f2138": {
        "id": "66c879c5f2138",
        "name": "Caressant Care On Bonnie Place",
        "streetaddress": "15 Bonnie Place",
        "latlng": "42.7726713,-81.1614826",
        "postal": "N5R 5T8",
        "lic_status": "Issued",
        "citytown": "St. Thomas",
        "lic_number": "S0021",
        "documents": [],
        "previously_known_as": []
    },
    "66eeb5465d091": {
        "id": "66eeb5465d091",
        "name": "Carleton Place Terrace by Symphony",
        "streetaddress": "6 Arthur Street",
        "latlng": "45.1326067,-76.1374413",
        "postal": "K7C 4S4",
        "lic_status": "Issued",
        "citytown": "Carleton Place",
        "lic_number": "N0270",
        "documents": [],
        "previously_known_as": []
    },
    "6752e745835d2": {
        "id": "6752e745835d2",
        "name": "Carlingwood Retirement Community",
        "streetaddress": "200 Lockhart Avenue",
        "latlng": "45.3757974,-75.7719832",
        "postal": "K2A 4C6",
        "lic_status": "Issued",
        "citytown": "Ottawa",
        "lic_number": "N0275",
        "documents": [],
        "previously_known_as": []
    },
    "65954c4254e36": {
        "id": "65954c4254e36",
        "name": "Caroline Place Retirement Residence",
        "streetaddress": "118 Market Street",
        "latlng": "43.259738,-79.8747461",
        "postal": "L8R 3P9",
        "lic_status": "Issued",
        "citytown": "Hamilton",
        "lic_number": "S0120",
        "documents": [],
        "previously_known_as": []
    },
    "66a38fc717646": {
        "id": "66a38fc717646",
        "name": "Carp Commons Retirement Village",
        "streetaddress": "458 Donald B Munro Drive",
        "latlng": "45.34558,-76.03806",
        "postal": "K0A 1L0",
        "lic_status": "Issued",
        "citytown": "Carp",
        "lic_number": "N0491",
        "documents": [],
        "previously_known_as": []
    },
    "67e53dc6e53e2": {
        "id": "67e53dc6e53e2",
        "name": "Carrington Place Retirement Residence",
        "streetaddress": "75 Dunham Drive",
        "latlng": "43.216138,-79.9912541",
        "postal": "L9G 1X7",
        "lic_status": "Issued",
        "citytown": "Ancaster",
        "lic_number": "S0391",
        "documents": [],
        "previously_known_as": []
    },
    "656f10c2265a1": {
        "id": "656f10c2265a1",
        "name": "Carveth Care Centre",
        "streetaddress": "375 James Street",
        "latlng": "44.3363301,-76.1592043",
        "postal": "K7G 2Z1",
        "lic_status": "Issued",
        "citytown": "Gananoque",
        "lic_number": "N0017",
        "documents": [],
        "previously_known_as": []
    },
    "67af3045c4289": {
        "id": "67af3045c4289",
        "name": "Casa Dolce Casa",
        "streetaddress": "7890 Pine Valley Drive",
        "latlng": "43.7873688,-79.5750521",
        "postal": "L4L 2J3",
        "lic_status": "Issued",
        "citytown": "Woodbridge",
        "lic_number": "T0475",
        "documents": [],
        "previously_known_as": [
            {
                "name": "Villa del Sole",
                "until": "December 18, 2017"
            }
        ]
    },
    "671a36c65e3e2": {
        "id": "671a36c65e3e2",
        "name": "Castle Peak Retirement Residence",
        "streetaddress": "56 Douglas Drive",
        "latlng": "45.0654745,-79.3230814",
        "postal": "P1L 0B9",
        "lic_status": "Issued",
        "citytown": "Bracebridge",
        "lic_number": "N0567",
        "documents": [],
        "previously_known_as": []
    },
    "678f8c4594489": {
        "id": "678f8c4594489",
        "name": "Cataraqui Heights Retirement Residence",
        "streetaddress": "2666 Princess Street",
        "latlng": "44.25951,-76.57572",
        "postal": "K7P 2W6",
        "lic_status": "Issued",
        "citytown": "Kingston",
        "lic_number": "N0555",
        "documents": [],
        "previously_known_as": []
    },
    "67f11b44a2cba": {
        "id": "67f11b44a2cba",
        "name": "Cavendish Manor Residence",
        "streetaddress": "5781 Dunn Street",
        "latlng": "43.0794119,-79.0887354",
        "postal": "L2G 2N9",
        "lic_status": "Issued",
        "citytown": "Niagara Falls",
        "lic_number": "S0434",
        "documents": [],
        "previously_known_as": []
    },
    "67e53dc65f638": {
        "id": "67e53dc65f638",
        "name": "Cedarbrook Lodge Retirement Residence",
        "streetaddress": "520 Markham Road",
        "latlng": "43.7548516,-79.2248963",
        "postal": "M1H 3A1",
        "lic_status": "Issued",
        "citytown": "Scarborough",
        "lic_number": "T0122",
        "documents": [],
        "previously_known_as": []
    },
    "679b69c70bd85": {
        "id": "679b69c70bd85",
        "name": "Cedarcroft Place",
        "streetaddress": "649 King Street  E.",
        "latlng": "43.9026023,-78.839849",
        "postal": "L1H 8P9",
        "lic_status": "Issued",
        "citytown": "Oshawa",
        "lic_number": "T0596",
        "documents": [],
        "previously_known_as": []
    },
    "671793c94c5b2": {
        "id": "671793c94c5b2",
        "name": "Cedarcroft Stratford Retirement Residence",
        "streetaddress": "260 Church Street",
        "latlng": "43.3650046,-80.9903449",
        "postal": "N5A 2R6",
        "lic_status": "Issued",
        "citytown": "Stratford",
        "lic_number": "S0092",
        "documents": [],
        "previously_known_as": []
    },
    "67237145437b7": {
        "id": "67237145437b7",
        "name": "Cedarhurst Dementia Care Home",
        "streetaddress": "2601 Bayview Avenue",
        "latlng": "43.7514063,-79.3844382",
        "postal": "M2L 1B5",
        "lic_status": "Issued",
        "citytown": "Toronto",
        "lic_number": "T0065",
        "documents": [],
        "previously_known_as": [
            {
                "name": "Cedarhurst",
                "until": "July 10, 2017"
            }
        ]
    },
    "673343457c7d1": {
        "id": "673343457c7d1",
        "name": "Centennial Park Place",
        "streetaddress": "25 Centennial Park Road",
        "latlng": "43.6532306,-79.5820275",
        "postal": "M9C 5H1",
        "lic_status": "Issued",
        "citytown": "Etobicoke",
        "lic_number": "T0268",
        "documents": [],
        "previously_known_as": []
    },
    "67a2014574cf1": {
        "id": "67a2014574cf1",
        "name": "Central Place Retirement Community",
        "streetaddress": "855 3rd Avenue  E.",
        "latlng": "44.5653305,-80.9400404",
        "postal": "N4K 2K6",
        "lic_status": "Issued",
        "citytown": "Owen Sound",
        "lic_number": "S0527",
        "documents": [],
        "previously_known_as": []
    },
    "66bb4ac87fffb": {
        "id": "66bb4ac87fffb",
        "name": "Centre d'Accueil Mon Chez Nous",
        "streetaddress": "2025 Rue Lajoie",
        "latlng": "45.639407,-74.895552",
        "postal": "K0B 1J0",
        "lic_status": "Issued",
        "citytown": "Lefaivre",
        "lic_number": "N0165",
        "documents": [],
        "previously_known_as": []
    },
    "67655c46ab30e": {
        "id": "67655c46ab30e",
        "name": "Champlain Gardens",
        "streetaddress": "9 Stafford Street",
        "latlng": "45.487323,-77.6752418",
        "postal": "K0J 1B0",
        "lic_status": "Issued",
        "citytown": "Barry's Bay",
        "lic_number": "N0530",
        "documents": [],
        "previously_known_as": [
            {
                "name": "Water Tower Lodge",
                "until": "August 4, 2020"
            }
        ]
    },
    "679e0cc7e41a3": {
        "id": "679e0cc7e41a3",
        "name": "Champlain Manor Retirement Residence",
        "streetaddress": "65 Fittons Road  W.",
        "latlng": "44.6195667,-79.4375957",
        "postal": "L3V 3V2",
        "lic_status": "Issued",
        "citytown": "Orillia",
        "lic_number": "N0037",
        "documents": [],
        "previously_known_as": []
    },
    "6798c6c4c0d4a": {
        "id": "6798c6c4c0d4a",
        "name": "Chapel Heights",
        "streetaddress": "7373 Niagara Square Drive",
        "latlng": "43.0689135,-79.1231943",
        "postal": "L2H 1J2",
        "lic_status": "Issued",
        "citytown": "Niagara Falls",
        "lic_number": "S0540",
        "documents": [],
        "previously_known_as": []
    },
    "67f11b4483b37": {
        "id": "67f11b4483b37",
        "name": "Chapel Hill Retirement Residence",
        "streetaddress": "2305 Page Road",
        "latlng": "45.4461628,-75.5263081",
        "postal": "K1W 1H3",
        "lic_status": "Issued",
        "citytown": "Orleans",
        "lic_number": "N0387",
        "documents": [],
        "previously_known_as": []
    },
    "67b5c7c64c455": {
        "id": "67b5c7c64c455",
        "name": "Charlotte Villa",
        "streetaddress": "120 Darling Street",
        "latlng": "43.1407712,-80.2611999",
        "postal": "N3T 5W6",
        "lic_status": "Issued",
        "citytown": "Brantford",
        "lic_number": "S0521",
        "documents": [],
        "previously_known_as": []
    },
    "67c83cc531fd2": {
        "id": "67c83cc531fd2",
        "name": "Chartwell Allandale Station Retirement Residence",
        "streetaddress": "357 Yonge Street",
        "latlng": "44.36882,-79.66551",
        "postal": "L4N 4K3",
        "lic_status": "Issued",
        "citytown": "Barrie",
        "lic_number": "N0565",
        "documents": [],
        "previously_known_as": []
    },
    "67efc9c40ed6d": {
        "id": "67efc9c40ed6d",
        "name": "Chartwell Anne Hathaway Retirement Residence",
        "streetaddress": "480 Downie Street",
        "latlng": "43.3617893,-80.9780848",
        "postal": "N5A 7Y5",
        "lic_status": "Issued",
        "citytown": "Stratford",
        "lic_number": "S0067",
        "documents": [],
        "previously_known_as": [
            {
                "name": "Anne Hathaway Retirement Residence",
                "until": "September 9, 2013"
            }
        ]
    },
    "67e29ac6a8a11": {
        "id": "67e29ac6a8a11",
        "name": "Chartwell Avondale Retirement Residence",
        "streetaddress": "1238 Queen Street  E.",
        "latlng": "43.6633912,-79.3300582",
        "postal": "M4L 1C3",
        "lic_status": "Issued",
        "citytown": "Toronto",
        "lic_number": "T0093",
        "documents": [],
        "previously_known_as": [
            {
                "name": "Avondale Retirement Residence",
                "until": "September 9, 2013"
            }
        ]
    },
    "67922f44e48d6": {
        "id": "67922f44e48d6",
        "name": "Chartwell Balmoral Place Retirement Community",
        "streetaddress": "8 Harbour Street  W.",
        "latlng": "44.5077101,-80.239727",
        "postal": "L9Y 5B4",
        "lic_status": "Issued",
        "citytown": "Collingwood ",
        "lic_number": "N0566",
        "documents": [],
        "previously_known_as": []
    },
    "676167c6e9a22": {
        "id": "676167c6e9a22",
        "name": "Chartwell Bankside Retirement Residence",
        "streetaddress": "71 Bankside Drive",
        "latlng": "43.4314995,-80.5285877",
        "postal": "N2N 3L1",
        "lic_status": "Issued",
        "citytown": "Kitchener",
        "lic_number": "T0088",
        "documents": [],
        "previously_known_as": [
            {
                "name": "Chartwell Bankside Terrace Retirement Residence",
                "until": "March 22, 2019"
            },
            {
                "name": "Chartwell Select Bankside Terrace",
                "until": "September 9, 2013"
            }
        ]
    },
    "67124dc70176a": {
        "id": "67124dc70176a",
        "name": "Chartwell Barton Retirement Residence",
        "streetaddress": "17290 Leslie Street",
        "latlng": "44.0606617,-79.4313129",
        "postal": "L3Y 3E1",
        "lic_status": "Issued",
        "citytown": "Newmarket",
        "lic_number": "T0086",
        "documents": [],
        "previously_known_as": [
            {
                "name": "Barton Retirement Residence",
                "until": "September 9, 2013"
            }
        ]
    },
    "6752e7459ff3b": {
        "id": "6752e7459ff3b",
        "name": "Chartwell Bayview Retirement Residence",
        "streetaddress": "435 Dundas Street  W.",
        "latlng": "44.146396,-77.4090081",
        "postal": "K8P 1B6",
        "lic_status": "Issued",
        "citytown": "Belleville",
        "lic_number": "N0080",
        "documents": [],
        "previously_known_as": [
            {
                "name": "Bayview Retirement Residence",
                "until": "September 9, 2013"
            }
        ]
    },
    "67ebd545c7534": {
        "id": "67ebd545c7534",
        "name": "Chartwell Bowmanville Creek Retirement Community",
        "streetaddress": "105 Queen Street",
        "latlng": "43.9103655,-78.6882233",
        "postal": "L1C 0T3",
        "lic_status": "Issued",
        "citytown": "Bowmanville",
        "lic_number": "T0622",
        "documents": [],
        "previously_known_as": []
    },
    "678a46456c83b": {
        "id": "678a46456c83b",
        "name": "Chartwell Chateau Cornwall Retirement Residence",
        "streetaddress": "41 Amelia Street",
        "latlng": "45.0177517,-74.7229732",
        "postal": "K6H 7E5",
        "lic_status": "Issued",
        "citytown": "Cornwall",
        "lic_number": "N0076",
        "documents": [],
        "previously_known_as": [
            {
                "name": "Chateau Cornwall Retirement Residence",
                "until": "September 9, 2013"
            }
        ]
    },
    "675195c4c0b5d": {
        "id": "675195c4c0b5d",
        "name": "Chartwell Clair Hills Retirement Community",
        "streetaddress": "530 Columbia Street  W.",
        "latlng": "43.4629073,-80.5812955",
        "postal": "N2T 0B1",
        "lic_status": "Issued",
        "citytown": "Waterloo",
        "lic_number": "T0464",
        "documents": [],
        "previously_known_as": [
            {
                "name": "Clair Hills Retirement Community",
                "until": "March 11, 2019"
            }
        ]
    },
    "669a554436a1d": {
        "id": "669a554436a1d",
        "name": "Chartwell Collegiate Heights Retirement Residence",
        "streetaddress": "95 Fauquier Avenue",
        "latlng": "46.5149768,-84.3253805",
        "postal": "P6B 0A2",
        "lic_status": "Issued",
        "citytown": "Sault Ste. Marie",
        "lic_number": "N0074",
        "documents": [],
        "previously_known_as": [
            {
                "name": "Collegiate Heights Retirement Residence",
                "until": "September 9, 2013"
            }
        ]
    },
    "6718e54601b9a": {
        "id": "6718e54601b9a",
        "name": "Chartwell Colonial Retirement Residence",
        "streetaddress": "101 Manning Road",
        "latlng": "43.8921455,-78.9463497",
        "postal": "L1N 9M2",
        "lic_status": "Issued",
        "citytown": "Whitby",
        "lic_number": "T0078",
        "documents": [],
        "previously_known_as": [
            {
                "name": "Colonial Retirement Residence",
                "until": "September 9, 2013"
            }
        ]
    },
    "66d1b4455c026": {
        "id": "66d1b4455c026",
        "name": "Chartwell Conservatory Pond Retirement Residence",
        "streetaddress": "1499 Stoneridge Drive",
        "latlng": "44.2369921,-76.5924931",
        "postal": "K7M 9H9",
        "lic_status": "Issued",
        "citytown": "Kingston",
        "lic_number": "N0073",
        "documents": [],
        "previously_known_as": [
            {
                "name": "Chartwell Select Conservatory Pond",
                "until": "September 9, 2013"
            }
        ]
    },
    "6798c6c4d729e": {
        "id": "6798c6c4d729e",
        "name": "Chartwell Deerview Crossing Retirement Residence",
        "streetaddress": "460 Rymal Road  W.",
        "latlng": "43.2077512,-79.9132341",
        "postal": "L9B 0B2",
        "lic_status": "Issued",
        "citytown": "Hamilton",
        "lic_number": "S0244",
        "documents": [],
        "previously_known_as": []
    },
    "67c83cc503966": {
        "id": "67c83cc503966",
        "name": "Chartwell Duke of Devonshire Retirement Residence",
        "streetaddress": "1095 Carling Avenue",
        "latlng": "45.3904192,-75.7247475",
        "postal": "K1Y 4P6",
        "lic_status": "Issued",
        "citytown": "Ottawa",
        "lic_number": "N0416",
        "documents": [],
        "previously_known_as": []
    },
    "660e964422ce8": {
        "id": "660e964422ce8",
        "name": "Chartwell Empress Kanata Retirement Residence",
        "streetaddress": "170 McGibbon Drive",
        "latlng": "45.307295,-75.9068689",
        "postal": "K2L 4H5",
        "lic_status": "Issued",
        "citytown": "Ottawa",
        "lic_number": "N0072",
        "documents": [],
        "previously_known_as": [
            {
                "name": "Empress Kanata Retirement Residence",
                "until": "September 9, 2013"
            }
        ]
    },
    "67c6eb44a7efe": {
        "id": "67c6eb44a7efe",
        "name": "Chartwell Georgian Retirement Residence",
        "streetaddress": "255 Governor's Road",
        "latlng": "43.2603141,-79.9698025",
        "postal": "L9H 3K4",
        "lic_status": "Issued",
        "citytown": "Dundas",
        "lic_number": "S0064",
        "documents": [],
        "previously_known_as": [
            {
                "name": "Georgian Retirement Residence",
                "until": "September 9, 2013"
            }
        ]
    },
    "669a554451f31": {
        "id": "669a554451f31",
        "name": "Chartwell Georgian Traditions Retirement Residence",
        "streetaddress": "57 Trott Boulevard",
        "latlng": "44.5098712,-80.2390147",
        "postal": "L9Y 0A3",
        "lic_status": "Issued",
        "citytown": "Collingwood",
        "lic_number": "N0071",
        "documents": [],
        "previously_known_as": [
            {
                "name": "Chartwell Select Georgian Traditions Retirement Residence",
                "until": "September 9, 2013"
            }
        ]
    },
    "67ebd54595720": {
        "id": "67ebd54595720",
        "name": "Chartwell Gibson Retirement Residence",
        "streetaddress": "1955 Steeles Avenue  E.",
        "latlng": "43.8077933,-79.3728313",
        "postal": "M2H 3P1",
        "lic_status": "Issued",
        "citytown": "Toronto",
        "lic_number": "T0107",
        "documents": [],
        "previously_known_as": [
            {
                "name": "Gibson Retirement Residence",
                "until": "September 9, 2013"
            }
        ]
    },
    "66f7efc56b2ff": {
        "id": "66f7efc56b2ff",
        "name": "Chartwell Glacier Ridge Retirement Residence",
        "streetaddress": "1261 Jasper Drive",
        "latlng": "48.4180045,-89.2528813",
        "postal": "P7B 6Z4",
        "lic_status": "Issued",
        "citytown": "Thunder Bay",
        "lic_number": "N0058",
        "documents": [],
        "previously_known_as": [
            {
                "name": "Glacier Ridge Retirement Residence",
                "until": "September 9, 2013"
            }
        ]
    },
    "67c053c5eddaa": {
        "id": "67c053c5eddaa",
        "name": "Chartwell Grenadier Retirement Residence",
        "streetaddress": "2100 Bloor Street  W.",
        "latlng": "43.6524138,-79.4711571",
        "postal": "M6S 1M7",
        "lic_status": "Issued",
        "citytown": "Toronto",
        "lic_number": "T0440",
        "documents": [],
        "previously_known_as": []
    },
    "67af30457417e": {
        "id": "67af30457417e",
        "name": "Chartwell Hartford Retirement Residence",
        "streetaddress": "3 Fifth Street  W.",
        "latlng": "44.8985505,-75.1847327",
        "postal": "K0C 1X0",
        "lic_status": "Issued",
        "citytown": "Morrisburg",
        "lic_number": "N0056",
        "documents": [],
        "previously_known_as": [
            {
                "name": "Hartford Retirement Residence",
                "until": "September 9, 2013"
            }
        ]
    },
    "675438c4dfd12": {
        "id": "675438c4dfd12",
        "name": "Chartwell Harwood Retirement Residences",
        "streetaddress": "240 Old Harwood Avenue",
        "latlng": "43.8650286,-79.0283346",
        "postal": "L1T 0N2",
        "lic_status": "Issued",
        "citytown": "Ajax",
        "lic_number": "T0447",
        "documents": [],
        "previously_known_as": []
    },
    "65bb87c370207": {
        "id": "65bb87c370207",
        "name": "Chartwell Hilldale Retirement Residence",
        "streetaddress": "309 Hilldale Road",
        "latlng": "48.4619434,-89.2592992",
        "postal": "P7G 0A2",
        "lic_status": "Issued",
        "citytown": "Thunder Bay",
        "lic_number": "N0454",
        "documents": [],
        "previously_known_as": []
    },
    "679cbb45e0a0f": {
        "id": "679cbb45e0a0f",
        "name": "Chartwell Hollandview Trail Retirement Residence",
        "streetaddress": "200 John West Way",
        "latlng": "44.0083658,-79.4509351",
        "postal": "L4G 0E4",
        "lic_status": "Issued",
        "citytown": "Aurora",
        "lic_number": "T0458",
        "documents": [],
        "previously_known_as": []
    },
    "661a73c39b055": {
        "id": "661a73c39b055",
        "name": "Chartwell Isabella Retirement Residence",
        "streetaddress": "1350 Isabella Street  E.",
        "latlng": "48.3769405,-89.2557468",
        "postal": "P7E 0A5",
        "lic_status": "Issued",
        "citytown": "Thunder Bay",
        "lic_number": "N0383",
        "documents": [],
        "previously_known_as": []
    },
    "66eeb5468b2b3": {
        "id": "66eeb5468b2b3",
        "name": "Chartwell Jackson Creek Retirement Residence",
        "streetaddress": "481 Reid Street",
        "latlng": "44.308557,-78.3291643",
        "postal": "K9H 7R9",
        "lic_status": "Issued",
        "citytown": "Peterborough",
        "lic_number": "T0106",
        "documents": [],
        "previously_known_as": [
            {
                "name": "Jackson Creek Retirement Residence",
                "until": "September 9, 2013"
            }
        ]
    },
    "67ee7844c79a9": {
        "id": "67ee7844c79a9",
        "name": "Chartwell Lakeshore Retirement Residence",
        "streetaddress": "5314 Lakeshore Road",
        "latlng": "43.3664178,-79.7325572",
        "postal": "L7L 6L8",
        "lic_status": "Issued",
        "citytown": "Burlington",
        "lic_number": "S0436",
        "documents": [],
        "previously_known_as": []
    },
    "679380c5b012d": {
        "id": "679380c5b012d",
        "name": "Chartwell Lansing Retirement Residence",
        "streetaddress": "10 Senlac Road",
        "latlng": "43.7594228,-79.4234868",
        "postal": "M2N 6P8",
        "lic_status": "Issued",
        "citytown": "Toronto",
        "lic_number": "T0092",
        "documents": [],
        "previously_known_as": [
            {
                "name": "Lansing Retirement Residence",
                "until": "September 9, 2013"
            }
        ]
    },
    "67c83cc55df79": {
        "id": "67c83cc55df79",
        "name": "Chartwell Lord Lansdowne Retirement Residence",
        "streetaddress": "920 Bank Street",
        "latlng": "45.3993861,-75.6868859",
        "postal": "K1S 1M8",
        "lic_status": "Issued",
        "citytown": "Ottawa",
        "lic_number": "N0424",
        "documents": [],
        "previously_known_as": []
    },
    "673343461d3a5": {
        "id": "673343461d3a5",
        "name": "Chartwell Martha's Landing Retirement Residence",
        "streetaddress": "2109 Lakeshore Road",
        "latlng": "43.3269173,-79.7922428",
        "postal": "L7R 4Z4",
        "lic_status": "Issued",
        "citytown": "Burlington",
        "lic_number": "S0055",
        "documents": [],
        "previously_known_as": [
            {
                "name": "Martha's Landing Retirement Residence",
                "until": "September 9, 2013"
            }
        ]
    },
    "67ebd5463078b": {
        "id": "67ebd5463078b",
        "name": "Chartwell McConnell Retirement Residence",
        "streetaddress": "801 Fourth Street  E.",
        "latlng": "45.0257009,-74.7148572",
        "postal": "K6H 7M8",
        "lic_status": "Issued",
        "citytown": "Cornwall",
        "lic_number": "N0063",
        "documents": [],
        "previously_known_as": [
            {
                "name": "McConnell Manor",
                "until": "September 9, 2013"
            }
        ]
    },
    "675438c55ba0e": {
        "id": "675438c55ba0e",
        "name": "Chartwell Meadowbrook Retirement Community",
        "streetaddress": "18 Jacobson Drive",
        "latlng": "46.4249117,-81.1411478",
        "postal": "P3Y 1P7",
        "lic_status": "Issued",
        "citytown": "Lively",
        "lic_number": "N0053",
        "documents": [],
        "previously_known_as": [
            {
                "name": "Meadowbrook Retirement Village",
                "until": "September 9, 2013"
            }
        ]
    },
    "67ebd545a1f7d": {
        "id": "67ebd545a1f7d",
        "name": "Chartwell Montgomery Village Retirement Residence",
        "streetaddress": "155 Riddell Road",
        "latlng": "43.904317,-80.1319544",
        "postal": "L9W 6R4",
        "lic_status": "Issued",
        "citytown": "Orangeville",
        "lic_number": "T0446",
        "documents": [],
        "previously_known_as": []
    },
    "6697b244ab049": {
        "id": "6697b244ab049",
        "name": "Chartwell New Edinburgh Square Retirement Residence",
        "streetaddress": "420 MacKay Street",
        "latlng": "45.4398169,-75.6770544",
        "postal": "K1M 2C4",
        "lic_status": "Issued",
        "citytown": "Ottawa",
        "lic_number": "N0052",
        "documents": [],
        "previously_known_as": [
            {
                "name": "New Edinburgh Square Retirement Residence",
                "until": "September 9, 2013"
            }
        ]
    },
    "675438c52c428": {
        "id": "675438c52c428",
        "name": "Chartwell Oak Park LaSalle Retirement Residence",
        "streetaddress": "3955 Thirteenth Street",
        "latlng": "42.2466333,-83.0347132",
        "postal": "N9H 2S7",
        "lic_status": "Issued",
        "citytown": "LaSalle",
        "lic_number": "S0054",
        "documents": [],
        "previously_known_as": [
            {
                "name": "Chartwell Classic Oak Park LaSalle Retirement Residence",
                "until": "September 9, 2013"
            }
        ]
    },
    "673737c5256c7": {
        "id": "673737c5256c7",
        "name": "Chartwell Oak Park Terrace Retirement Residence",
        "streetaddress": "1750 E.C. Row, North Service Road",
        "latlng": "42.2859806,-82.9691127",
        "postal": "N8W 1Y3",
        "lic_status": "Issued",
        "citytown": "Windsor",
        "lic_number": "S0053",
        "documents": [],
        "previously_known_as": [
            {
                "name": "Chartwell Classic Oak Park Terrace Retirement Residence",
                "until": "September 9, 2013"
            }
        ]
    },
    "6794d24548466": {
        "id": "6794d24548466",
        "name": "Chartwell Oak Ridges Retirement Community",
        "streetaddress": "12925 Yonge Street",
        "latlng": "43.9427569,-79.4532008",
        "postal": "L4E 0T7",
        "lic_status": "Issued",
        "citytown": "Richmond Hill",
        "lic_number": "T0465",
        "documents": [],
        "previously_known_as": [
            {
                "name": "Oak Ridges Retirement Community",
                "until": "March 7, 2019"
            }
        ]
    },
    "679b69c6b9b04": {
        "id": "679b69c6b9b04",
        "name": "Chartwell Oakville Retirement Residence",
        "streetaddress": "180 Oak Park Boulevard",
        "latlng": "43.4806651,-79.7175955",
        "postal": "L6H 0A6",
        "lic_status": "Issued",
        "citytown": "Oakville",
        "lic_number": "T0083",
        "documents": [],
        "previously_known_as": [
            {
                "name": "Chartwell Classic Oakville Retirement Residence",
                "until": "September 9, 2013"
            }
        ]
    },
    "67e7e0c5d5a1e": {
        "id": "67e7e0c5d5a1e",
        "name": "Chartwell Orchards Retirement Residence",
        "streetaddress": "3421 Frederick Avenue",
        "latlng": "43.1595854,-79.3957393",
        "postal": "L0R 2C0",
        "lic_status": "Issued",
        "citytown": "Vineland",
        "lic_number": "S0421",
        "documents": [],
        "previously_known_as": []
    },
    "67810bc5783f7": {
        "id": "67810bc5783f7",
        "name": "Chartwell Oxford Gardens Retirement Residence",
        "streetaddress": "423 Devonshire Avenue",
        "latlng": "43.1434653,-80.7633996",
        "postal": "N4S 0B2",
        "lic_status": "Issued",
        "citytown": "Woodstock",
        "lic_number": "S0383",
        "documents": [],
        "previously_known_as": []
    },
    "67c1a5452c727": {
        "id": "67c1a5452c727",
        "name": "Chartwell Park Place Retirement Residence",
        "streetaddress": "15055 Yonge Street",
        "latlng": "43.9949335,-79.4660445",
        "postal": "L4G 6T4",
        "lic_status": "Issued",
        "citytown": "Aurora",
        "lic_number": "T0104",
        "documents": [],
        "previously_known_as": [
            {
                "name": "Park Place Manor Retirement Residence",
                "until": "September 9, 2013"
            }
        ]
    },
    "67ebd5463d3f3": {
        "id": "67ebd5463d3f3",
        "name": "Chartwell Pickering City Centre Retirement Residence",
        "streetaddress": "1801 Valley Farm Road",
        "latlng": "43.8382369,-79.0806251",
        "postal": "L1V 0A5",
        "lic_status": "Issued",
        "citytown": "Pickering",
        "lic_number": "T0110",
        "documents": [],
        "previously_known_as": [
            {
                "name": "Pickering City Centre Retirement Residence",
                "until": "September 9, 2013"
            }
        ]
    },
    "668931c551ad2": {
        "id": "668931c551ad2",
        "name": "Chartwell Pinewood Retirement Residence",
        "streetaddress": "1022 Pembroke Street  E.",
        "latlng": "45.8236485,-77.0865533",
        "postal": "K8A 8A7",
        "lic_status": "Issued",
        "citytown": "Pembroke",
        "lic_number": "N0051",
        "documents": [],
        "previously_known_as": [
            {
                "name": "Pinewood Retirement Residence",
                "until": "September 9, 2013"
            }
        ]
    },
    "67ebd545e8e1e": {
        "id": "67ebd545e8e1e",
        "name": "Chartwell Quail Creek Retirement Residence",
        "streetaddress": "450 Albert Street",
        "latlng": "45.4817041,-76.6992622",
        "postal": "K7V 4K4",
        "lic_status": "Issued",
        "citytown": "Renfrew",
        "lic_number": "N0050",
        "documents": [],
        "previously_known_as": [
            {
                "name": "Quail Creek Retirement Residence",
                "until": "September 9, 2013"
            }
        ]
    },
    "67e53dc622063": {
        "id": "67e53dc622063",
        "name": "Chartwell Queen's Square Retirement Residence",
        "streetaddress": "10 Melville Street  N.",
        "latlng": "43.3604501,-80.3168357",
        "postal": "N1S 1H5",
        "lic_status": "Issued",
        "citytown": "Cambridge",
        "lic_number": "T0101",
        "documents": [],
        "previously_known_as": [
            {
                "name": "Queen's Square Terrace Retirement Residence",
                "until": "September 9, 2013"
            }
        ]
    },
    "676167c73e496": {
        "id": "676167c73e496",
        "name": "Chartwell Regency Retirement Residence",
        "streetaddress": "29 Mississauga Road  N.",
        "latlng": "43.5491632,-79.5908424",
        "postal": "L5H 2H7",
        "lic_status": "Issued",
        "citytown": "Mississauga",
        "lic_number": "T0100",
        "documents": [],
        "previously_known_as": [
            {
                "name": "Regency Retirement Residence",
                "until": "September 9, 2013"
            }
        ]
    },
    "669660c4c9909": {
        "id": "669660c4c9909",
        "name": "Chartwell Riverside Retirement Residence",
        "streetaddress": "201 Riverside Drive",
        "latlng": "42.9842958,-81.2685739",
        "postal": "N6H 1E5",
        "lic_status": "Issued",
        "citytown": "London",
        "lic_number": "S0050",
        "documents": [],
        "previously_known_as": [
            {
                "name": "Chartwell Select Riverside Residence",
                "until": "September 9, 2013"
            }
        ]
    },
    "66d305c53faa0": {
        "id": "66d305c53faa0",
        "name": "Chartwell Robert Speck Retirement Residence",
        "streetaddress": "100 Robert Speck Parkway",
        "latlng": "43.5975756,-79.6335867",
        "postal": "L4Z 0A1",
        "lic_status": "Issued",
        "citytown": "Mississauga",
        "lic_number": "T0111",
        "documents": [],
        "previously_known_as": [
            {
                "name": "Chartwell Classic Robert Speck",
                "until": "September 9, 2013"
            }
        ]
    },
    "66d062c4cf4f6": {
        "id": "66d062c4cf4f6",
        "name": "Chartwell Rockcliffe Retirement Residence",
        "streetaddress": "100 Island Lodge Road",
        "latlng": "45.4375773,-75.6814969",
        "postal": "K1N 0A2",
        "lic_status": "Issued",
        "citytown": "Ottawa",
        "lic_number": "N0407",
        "documents": [],
        "previously_known_as": []
    },
    "66ae1bc62f9e6": {
        "id": "66ae1bc62f9e6",
        "name": "Chartwell Rosedale Retirement Residence",
        "streetaddress": "1813 County Road 2   E.  RR 1",
        "latlng": "44.6016488,-75.6649929",
        "postal": "K6V 5T1",
        "lic_status": "Issued",
        "citytown": "Brockville",
        "lic_number": "N0070",
        "documents": [],
        "previously_known_as": [
            {
                "name": "Rosedale Retirement Residence",
                "until": "September 9, 2013"
            }
        ]
    },
    "67e3ec469864b": {
        "id": "67e3ec469864b",
        "name": "Chartwell Rouge Valley Retirement Residence",
        "streetaddress": "5958 16th Avenue",
        "latlng": "43.8912017,-79.2672264",
        "postal": "L3P 3J3",
        "lic_status": "Issued",
        "citytown": "Markham",
        "lic_number": "T0097",
        "documents": [],
        "previously_known_as": [
            {
                "name": "Rouge Valley Retirement Residence",
                "until": "September 9, 2013"
            }
        ]
    },
    "67504446328b5": {
        "id": "67504446328b5",
        "name": "Chartwell Royal on Gordon Retirement Residence",
        "streetaddress": "1691 Gordon Street",
        "latlng": "43.5028625,-80.193489",
        "postal": "N1L 1E1",
        "lic_status": "Issued",
        "citytown": "Guelph",
        "lic_number": "T0090",
        "documents": [],
        "previously_known_as": [
            {
                "name": "Royal-on-Gordon",
                "until": "September 9, 2013"
            }
        ]
    },
    "67ed26c456c0c": {
        "id": "67ed26c456c0c",
        "name": "Chartwell Scarlett Heights Retirement Residence",
        "streetaddress": "4005 Eglinton Avenue  W.",
        "latlng": "43.683357,-79.51944",
        "postal": "M9A 5H3",
        "lic_status": "Issued",
        "citytown": "Etobicoke",
        "lic_number": "T0108",
        "documents": [],
        "previously_known_as": [
            {
                "name": "Scarlett Heights Retirement Residence",
                "until": "September 9, 2013"
            }
        ]
    },
    "6718e5467e145": {
        "id": "6718e5467e145",
        "name": "Chartwell Southwind Retirement Residence",
        "streetaddress": "1645 Paris Street",
        "latlng": "46.4596243,-81.0029736",
        "postal": "P3E 6L5",
        "lic_status": "Issued",
        "citytown": "Sudbury",
        "lic_number": "N0069",
        "documents": [],
        "previously_known_as": [
            {
                "name": "Southwind Retirement Residence",
                "until": "September 9, 2013"
            }
        ]
    },